stamp,gnss_x,gnss_y,gnss_z,gnss_roll,gnss_pitch,gnss_yaw,gnss_map_vx,gnss_map_vy,gnss_map_vz,gnss_base_vx,gnss_base_vy,gnss_base_vz,gnss_status,gnss_fsm_status,gnss_original_status
1716181090.151553,1001.401664,565.097769,-0.001191,0.022904,-0.004732,0.002057,-0.000727,0.000045,-0.001200,-0.000705,0.000014,-0.001214,1,1,1
1716181090.351542,1001.401511,565.097814,-0.001167,0.022932,-0.004726,0.002045,-0.000953,0.000610,-0.001600,-0.000926,0.000568,-0.001631,1,1,1
1716181090.551528,1001.401618,565.097958,-0.001160,0.022942,-0.004723,0.002040,-0.000617,0.000479,-0.001800,-0.000586,0.000434,-0.001821,1,1,1
1716181090.751528,1001.401760,565.098114,-0.001145,0.022928,-0.004743,0.002035,-0.000650,0.000164,-0.001100,-0.000631,0.000136,-0.001115,1,1,1
1716181090.951523,1001.401928,565.098294,-0.001176,0.022910,-0.004737,0.002016,-0.000605,0.000891,-0.001100,-0.000589,0.000862,-0.001131,1,1,1
1716181091.151576,1001.401905,565.098498,-0.001131,0.022934,-0.004748,0.002031,-0.000474,0.001227,-0.000700,-0.000467,0.001208,-0.000736,1,1,1
1716181091.351596,1001.401869,565.098717,-0.001146,0.022945,-0.004730,0.002035,0.000219,0.000867,-0.000900,0.000231,0.000848,-0.000915,1,1,1
1716181091.551588,1001.402756,565.098543,-0.001151,0.022951,-0.004722,0.002033,0.000674,0.000660,-0.000300,0.000676,0.000656,-0.000303,1,1,1
1716181091.751584,1001.403579,565.098304,-0.001161,0.022953,-0.004714,0.002032,0.000770,-0.000241,0.000500,0.000761,-0.000225,0.000519,1,1,1
1716181091.951754,1001.404429,565.098032,-0.001146,0.022958,-0.004721,0.002021,0.001713,-0.000340,0.000700,0.001701,-0.000315,0.000739,1,1,1
1716181092.151809,1001.405000,565.097829,-0.001160,0.022953,-0.004714,0.001992,0.002070,-0.000569,-0.000100,0.002075,-0.000560,-0.000049,1,1,1
1716181092.351880,1001.405426,565.097749,-0.001163,0.022964,-0.004705,0.001992,0.002027,-0.000374,-0.000100,0.002031,-0.000365,-0.000054,1,1,1
1716181092.551848,1001.405213,565.097466,-0.001110,0.022987,-0.004722,0.002002,0.001994,-0.000688,-0.000300,0.002003,-0.000684,-0.000248,1,1,1
1716181092.751817,1001.404984,565.097250,-0.001119,0.022979,-0.004722,0.002035,0.001549,-0.000991,-0.000700,0.001566,-0.000998,-0.000649,1,1,1
1716181092.951792,1001.404760,565.096943,-0.001160,0.022966,-0.004705,0.002031,0.001353,-0.001034,-0.000900,0.001375,-0.001047,-0.000851,1,1,1
1716181093.151819,1001.404829,565.096682,-0.001169,0.022956,-0.004706,0.002036,0.001308,-0.001760,-0.000300,0.001322,-0.001760,-0.000236,1,1,1
1716181093.351800,1001.404995,565.096335,-0.001140,0.022970,-0.004715,0.002038,0.001005,-0.001315,-0.000500,0.001021,-0.001321,-0.000451,1,1,1
1716181093.551776,1001.404327,565.096001,-0.001108,0.022980,-0.004728,0.002045,0.000570,-0.002127,0.000000,0.000580,-0.002124,0.000059,1,1,1
1716181093.751761,1001.403646,565.095592,-0.001098,0.022997,-0.004722,0.002045,0.000091,-0.002744,0.001100,0.000084,-0.002718,0.001164,1,1,1
1716181093.951749,1001.402982,565.095099,-0.001108,0.022985,-0.004724,0.002024,-0.000767,-0.003035,0.000500,-0.000761,-0.003027,0.000555,1,1,1
1716181094.151757,1001.402667,565.094637,-0.001084,0.022993,-0.004734,0.002036,-0.000841,-0.002232,0.001300,-0.000854,-0.002206,0.001335,1,1,1
1716181094.351734,1001.402552,565.094103,-0.001060,0.023004,-0.004741,0.002039,-0.000636,-0.002699,0.001400,-0.000648,-0.002670,0.001450,1,1,1
1716181094.551709,1001.402165,565.095249,-0.001092,0.022983,-0.004736,0.002060,-0.001003,-0.001961,0.001900,-0.001028,-0.001922,0.001926,1,1,1
1716181094.751697,1001.401755,565.096302,-0.001101,0.022971,-0.004740,0.002052,-0.001770,-0.000798,0.002300,-0.001808,-0.000755,0.002285,1,1,1
1716181094.951697,1001.401281,565.097391,-0.001101,0.022960,-0.004748,0.002049,-0.001899,-0.000212,0.002800,-0.001949,-0.000158,0.002769,1,1,1
1716181095.151700,1001.400822,565.097754,-0.001113,0.022949,-0.004749,0.002073,-0.002299,0.000212,0.002500,-0.002345,0.000257,0.002452,1,1,1
1716181095.351698,1001.400532,565.097720,-0.001072,0.022977,-0.004754,0.002062,-0.002213,-0.000179,0.002800,-0.002263,-0.000126,0.002762,1,1,1
1716181095.551678,1001.401391,565.097600,-0.001071,0.022995,-0.004741,0.002093,-0.001325,-0.000496,0.003100,-0.001379,-0.000432,0.003086,1,1,1
1716181095.751658,1001.402299,565.097293,-0.001091,0.022979,-0.004739,0.002099,-0.000860,-0.001213,0.003400,-0.000916,-0.001139,0.003411,1,1,1
1716181095.951651,1001.403218,565.097009,-0.001049,0.023001,-0.004750,0.002088,0.000160,-0.001194,0.003500,0.000101,-0.001112,0.003529,1,1,1
1716181096.151784,1001.403549,565.096671,-0.001081,0.022992,-0.004737,0.002085,0.000246,-0.001584,0.003600,0.000187,-0.001500,0.003639,1,1,1
1716181096.351768,1001.403594,565.096384,-0.001076,0.022984,-0.004746,0.002091,0.000115,-0.001920,0.003100,0.000067,-0.001848,0.003145,1,1,1
1716181096.551769,1001.403853,565.096692,-0.001153,0.022963,-0.004712,0.002092,0.000279,-0.001270,0.003500,0.000220,-0.001188,0.003533,1,1,1
1716181096.751751,1001.404246,565.097171,-0.001163,0.022974,-0.004697,0.002071,0.001103,-0.001293,0.003200,0.001050,-0.001214,0.003248,1,1,1
1716181096.951731,1001.404687,565.097625,-0.001175,0.022979,-0.004686,0.002073,0.001756,-0.000536,0.003100,0.001701,-0.000456,0.003143,1,1,1
1716181097.151748,1001.405083,565.097672,-0.001183,0.022962,-0.004693,0.002064,0.001842,-0.000927,0.002500,0.001800,-0.000860,0.002554,1,1,1
1716181097.351728,1001.405466,565.097537,-0.001163,0.022973,-0.004698,0.002081,0.002037,-0.000884,0.002300,0.001998,-0.000820,0.002357,1,1,1
1716181097.551728,1001.405034,565.097653,-0.001182,0.022971,-0.004687,0.002079,0.001820,-0.000829,0.001600,0.001794,-0.000783,0.001652,1,1,1
1716181097.751710,1001.404598,565.097749,-0.001171,0.022967,-0.004697,0.002074,0.001301,-0.000329,0.001600,0.001273,-0.000285,0.001631,1,1,1
1716181097.951688,1001.404149,565.097763,-0.001104,0.022980,-0.004731,0.002072,0.000920,-0.000924,0.001000,0.000906,-0.000896,0.001038,1,1,1
1716181098.151712,1001.404168,565.097581,-0.001057,0.023008,-0.004739,0.002067,0.000929,-0.001434,0.000600,0.000925,-0.001415,0.000650,1,1,1
1716181098.351699,1001.404344,565.097303,-0.001022,0.023012,-0.004760,0.002079,0.000886,-0.001239,0.001100,0.000872,-0.001209,0.001144,1,1,1
1716181098.551720,1001.404280,565.096940,-0.001019,0.023017,-0.004757,0.002093,0.000658,-0.001596,0.001600,0.000636,-0.001556,0.001648,1,1,1
1716181098.751703,1001.404192,565.096485,-0.001015,0.023023,-0.004756,0.002093,0.000624,-0.001911,0.001500,0.000606,-0.001872,0.001555,1,1,1
1716181098.951681,1001.404100,565.096006,-0.000999,0.023043,-0.004751,0.002101,0.000808,-0.002280,0.001300,0.000795,-0.002245,0.001367,1,1,1
1716181099.151666,1001.404230,565.095466,-0.001000,0.023042,-0.004751,0.002108,0.000817,-0.002790,0.001000,0.000812,-0.002762,0.001079,1,1,1
1716181099.351646,1001.404409,565.094953,-0.000982,0.023059,-0.004750,0.002117,0.001230,-0.002801,0.001200,0.001221,-0.002767,0.001286,1,1,1
1716181099.551637,1001.404822,565.095247,-0.000967,0.023052,-0.004764,0.002092,0.001556,-0.002423,0.001100,0.001547,-0.002389,0.001184,1,1,1
1716181099.751636,1001.405232,565.095543,-0.000974,0.023055,-0.004758,0.002101,0.001675,-0.002499,0.001400,0.001661,-0.002457,0.001487,1,1,1
1716181099.951627,1001.405654,565.095803,-0.000978,0.023064,-0.004748,0.002081,0.001958,-0.001925,0.001300,0.001943,-0.001884,0.001380,1,1,1
1716181100.151671,1001.406089,565.095552,-0.000962,0.023070,-0.004754,0.002079,0.002273,-0.001958,0.001000,0.002264,-0.001923,0.001086,1,1,1
1716181100.351672,1001.406573,565.095108,-0.000972,0.023056,-0.004758,0.002081,0.002402,-0.002544,0.001200,0.002391,-0.002503,0.001302,1,1,1
1716181100.551672,1001.406182,565.095716,-0.000986,0.023039,-0.004762,0.002098,0.002154,-0.001882,0.001300,0.002139,-0.001840,0.001382,1,1,1
1716181100.751657,1001.405911,565.096243,-0.000936,0.023044,-0.004791,0.002104,0.002056,-0.001903,0.001100,0.002045,-0.001867,0.001181,1,1,1
1716181100.951636,1001.405653,565.096721,-0.000930,0.023041,-0.004797,0.002108,0.002025,-0.001296,0.001400,0.002005,-0.001253,0.001466,1,1,1
1716181101.151621,1001.405841,565.096691,-0.000905,0.023056,-0.004802,0.002101,0.001570,-0.001089,0.001100,0.001555,-0.001055,0.001153,1,1,1
1716181101.351609,1001.406114,565.096447,-0.000935,0.023065,-0.004776,0.002108,0.001320,-0.001348,0.001600,0.001297,-0.001304,0.001654,1,1,1
1716181101.551601,1001.405647,565.096477,-0.000949,0.023052,-0.004776,0.002103,0.000646,-0.002008,0.001900,0.000620,-0.001961,0.001957,1,1,1
1716181101.751587,1001.404874,565.096569,-0.000943,0.023045,-0.004786,0.002091,0.000570,-0.002127,0.001900,0.000545,-0.002080,0.001958,1,1,1
1716181101.951577,1001.404033,565.096672,-0.000984,0.023024,-0.004775,0.002089,-0.000536,-0.001756,0.001600,-0.000557,-0.001721,0.001630,1,1,1
1716181102.151572,1001.403715,565.096435,-0.001007,0.023016,-0.004766,0.002075,-0.000688,-0.001994,0.001200,-0.000701,-0.001970,0.001233,1,1,1
1716181102.351587,1001.403556,565.096031,-0.001012,0.023023,-0.004757,0.002078,-0.000634,-0.001777,0.001700,-0.000656,-0.001741,0.001729,1,1,1
1716181102.551575,1001.403185,565.095905,-0.001025,0.023047,-0.004731,0.002075,-0.001222,-0.002828,0.001600,-0.001237,-0.002797,0.001642,1,1,1
1716181102.751586,1001.402743,565.095744,-0.001036,0.023044,-0.004726,0.002085,-0.001286,-0.002535,0.001600,-0.001303,-0.002504,0.001634,1,1,1
1716181102.951621,1001.402309,565.095509,-0.001021,0.023048,-0.004733,0.002071,-0.001548,-0.003207,0.001100,-0.001553,-0.003189,0.001145,1,1,1
1716181103.151634,1001.402043,565.094965,-0.001017,0.023043,-0.004739,0.002066,-0.001191,-0.003435,0.001700,-0.001205,-0.003402,0.001757,1,1,1
1716181103.351624,1001.401780,565.094235,-0.001009,0.023035,-0.004751,0.002077,-0.001322,-0.003771,0.001700,-0.001335,-0.003738,0.001762,1,1,1
1716181103.551612,1001.402216,565.094461,-0.000995,0.023033,-0.004761,0.002092,-0.000531,-0.004110,0.002000,-0.000548,-0.004065,0.002084,1,1,1
1716181103.751600,1001.402665,565.094610,-0.001006,0.023023,-0.004761,0.002104,-0.000943,-0.004098,0.001300,-0.000947,-0.004072,0.001376,1,1,1
1716181103.951594,1001.403124,565.094671,-0.001025,0.023006,-0.004763,0.002084,-0.000204,-0.003731,0.001700,-0.000218,-0.003692,0.001781,1,1,1
1716181104.151663,1001.403284,565.094106,-0.000986,0.023001,-0.004792,0.002075,0.000174,-0.004057,0.001700,0.000163,-0.004016,0.001796,1,1,1
1716181104.351646,1001.403300,565.093247,-0.000962,0.023028,-0.004787,0.002093,-0.000173,-0.004338,0.000800,-0.000167,-0.004320,0.000896,1,1,1
1716181104.551636,1001.402881,565.094041,-0.000978,0.023014,-0.004787,0.002095,-0.000574,-0.003914,0.001600,-0.000584,-0.003879,0.001679,1,1,1
1716181104.751662,1001.402499,565.094617,-0.000973,0.022994,-0.004805,0.002090,-0.000617,-0.003719,0.001100,-0.000619,-0.003696,0.001174,1,1,1
1716181104.951642,1001.402025,565.095192,-0.000992,0.022985,-0.004799,0.002113,-0.001288,-0.003457,0.001000,-0.001290,-0.003440,0.001055,1,1,1
1716181105.151643,1001.401634,565.094838,-0.000986,0.022975,-0.004812,0.002112,-0.001982,-0.003097,0.001000,-0.001985,-0.003084,0.001035,1,1,1
1716181105.351630,1001.401215,565.094207,-0.000962,0.022997,-0.004810,0.002134,-0.002113,-0.003433,0.000700,-0.002109,-0.003427,0.000740,1,1,1
1716181105.551612,1001.401974,565.094614,-0.000970,0.022990,-0.004810,0.002108,-0.001960,-0.003195,0.001000,-0.001963,-0.003181,0.001037,1,1,1
1716181105.751601,1001.402604,565.094975,-0.001010,0.022962,-0.004806,0.002093,-0.001655,-0.002718,0.000900,-0.001659,-0.002706,0.000932,1,1,1
1716181105.951590,1001.403093,565.095407,-0.001038,0.022959,-0.004790,0.002096,-0.001622,-0.002404,0.001500,-0.001638,-0.002377,0.001525,1,1,1
1716181106.151601,1001.403036,565.095161,-0.001057,0.022970,-0.004769,0.002090,-0.001622,-0.002404,0.002000,-0.001647,-0.002366,0.002025,1,1,1
1716181106.351587,1001.402758,565.094640,-0.001014,0.022988,-0.004783,0.002089,-0.001157,-0.003121,0.001900,-0.001177,-0.003083,0.001950,1,1,1
1716181106.551584,1001.402463,565.094854,-0.001049,0.022977,-0.004769,0.002094,-0.001603,-0.003424,0.002100,-0.001625,-0.003383,0.002148,1,1,1
1716181106.751572,1001.402168,565.094900,-0.001061,0.022965,-0.004770,0.002082,-0.001624,-0.003326,0.002100,-0.001647,-0.003285,0.002146,1,1,1
1716181106.951563,1001.401855,565.094900,-0.001066,0.022969,-0.004764,0.002069,-0.001832,-0.003781,0.001400,-0.001839,-0.003757,0.001453,1,1,1
1716181107.151567,1001.401493,565.094261,-0.001037,0.022977,-0.004776,0.002051,-0.001941,-0.004214,0.001700,-0.001952,-0.004185,0.001761,1,1,1
1716181107.351566,1001.401099,565.093440,-0.001052,0.022965,-0.004776,0.002074,-0.001779,-0.004486,0.002200,-0.001798,-0.004444,0.002269,1,1,1
1716181107.551569,1001.401253,565.093736,-0.001090,0.022938,-0.004772,0.002078,-0.002027,-0.003824,0.001500,-0.002036,-0.003799,0.001550,1,1,1
1716181107.751565,1001.401459,565.094220,-0.001097,0.022911,-0.004788,0.002075,-0.001896,-0.003488,0.001200,-0.001901,-0.003469,0.001245,1,1,1
1716181107.951556,1001.401622,565.094780,-0.001092,0.022912,-0.004791,0.002090,-0.001753,-0.002740,0.001100,-0.001760,-0.002723,0.001130,1,1,1
1716181108.151552,1001.401410,565.094600,-0.001092,0.022900,-0.004800,0.002108,-0.001622,-0.002404,0.000900,-0.001627,-0.002391,0.000925,1,1,1
1716181108.351541,1001.401025,565.094077,-0.001113,0.022891,-0.004793,0.002106,-0.002284,-0.002652,0.000700,-0.002284,-0.002647,0.000719,1,1,1
1716181108.551523,1001.401335,565.094304,-0.001133,0.022870,-0.004796,0.002101,-0.001763,-0.002230,0.000600,-0.001763,-0.002225,0.000619,1,1,1
1716181108.751523,1001.401707,565.094667,-0.001092,0.022885,-0.004811,0.002115,-0.001970,-0.002685,0.000100,-0.001959,-0.002692,0.000125,1,1,1
1716181108.951514,1001.402031,565.094977,-0.001105,0.022873,-0.004812,0.002107,-0.001686,-0.002111,0.000700,-0.001689,-0.002103,0.000717,1,1,1
1716181109.151563,1001.401813,565.094781,-0.001105,0.022876,-0.004810,0.002126,-0.001958,-0.002273,0.000600,-0.001958,-0.002269,0.000616,1,1,1
1716181109.351551,1001.401422,565.094332,-0.001127,0.022854,-0.004812,0.002117,-0.001937,-0.002371,0.000700,-0.001938,-0.002364,0.000719,1,1,1
1716181109.551560,1001.401799,565.095184,-0.001102,0.022852,-0.004830,0.002113,-0.001522,-0.001461,0.000100,-0.001517,-0.001466,0.000106,1,1,1
1716181109.751546,1001.402189,565.096087,-0.001091,0.022855,-0.004834,0.002095,-0.001456,-0.000832,-0.000200,-0.001448,-0.000843,-0.000207,1,1,1
1716181109.951579,1001.402545,565.096958,-0.001132,0.022849,-0.004812,0.002074,-0.000912,-0.000508,0.000200,-0.000913,-0.000508,0.000195,1,1,1
1716181110.151594,1001.402449,565.097185,-0.001170,0.022841,-0.004793,0.002075,-0.001563,-0.000343,0.000200,-0.001564,-0.000347,0.000179,1,1,1
1716181110.351582,1001.402117,565.097233,-0.001180,0.022847,-0.004783,0.002078,-0.001658,0.000557,0.000400,-0.001668,0.000558,0.000357,1,1,1
1716181110.551695,1001.402528,565.097780,-0.001172,0.022851,-0.004785,0.002096,-0.001615,0.000362,0.000000,-0.001617,0.000353,-0.000038,1,1,1
1716181110.751674,1001.402942,565.098328,-0.001177,0.022847,-0.004785,0.002102,-0.001451,0.001012,-0.000400,-0.001448,0.000995,-0.000449,1,1,1
1716181110.951661,1001.403285,565.098861,-0.001194,0.022849,-0.004772,0.002111,-0.000996,0.000805,0.000500,-0.001009,0.000811,0.000463,1,1,1
1716181111.151649,1001.403178,565.099179,-0.001204,0.022825,-0.004784,0.002122,-0.001387,0.000719,0.000200,-0.001393,0.000716,0.000158,1,1,1
1716181111.367666,1001.402909,565.099423,-0.001253,0.022813,-0.004761,0.002109,-0.001394,0.002151,-0.000400,-0.001397,0.002134,-0.000474,1,1,1
1716181111.567653,1001.402419,565.099276,-0.001210,0.022814,-0.004788,0.002096,-0.001861,0.001946,-0.000700,-0.001857,0.001920,-0.000778,1,1,1
1716181111.767634,1001.401966,565.099204,-0.001219,0.022820,-0.004777,0.002080,-0.002175,0.001979,-0.000200,-0.002181,0.001963,-0.000285,1,1,1
1716181111.967615,1001.401426,565.099174,-0.001220,0.022813,-0.004782,0.002068,-0.002871,0.001417,-0.000400,-0.002870,0.001393,-0.000484,1,1,1
1716181112.167609,1001.400891,565.099407,-0.001210,0.022811,-0.004791,0.002051,-0.002664,0.001872,-0.000400,-0.002665,0.001849,-0.000491,1,1,1
1716181112.367594,1001.400467,565.099713,-0.001229,0.022798,-0.004789,0.002062,-0.002544,0.001796,-0.000500,-0.002543,0.001771,-0.000587,1,1,1
1716181112.567579,1001.400949,565.099533,-0.001220,0.022792,-0.004799,0.002071,-0.002251,0.001860,-0.001000,-0.002242,0.001825,-0.001083,1,1,1
1716181112.767564,1001.401452,565.099319,-0.001197,0.022815,-0.004796,0.002069,-0.001808,0.001241,-0.000600,-0.001803,0.001218,-0.000661,1,1,1
1716181112.967547,1001.401972,565.099110,-0.001202,0.022807,-0.004799,0.002070,-0.001537,0.001403,-0.000500,-0.001534,0.001383,-0.000560,1,1,1
1716181113.167534,1001.401859,565.099306,-0.001178,0.022814,-0.004809,0.002073,-0.001287,0.001663,-0.001000,-0.001276,0.001633,-0.001061,1,1,1
1716181113.367522,1001.401563,565.099667,-0.001152,0.022809,-0.004830,0.002081,-0.001415,0.002249,-0.000600,-0.001415,0.002227,-0.000677,1,1,1
1716181113.567585,1001.401980,565.099461,-0.001159,0.022814,-0.004822,0.002060,-0.001699,0.001675,-0.000700,-0.001694,0.001649,-0.000769,1,1,1
1716181113.767598,1001.402288,565.099309,-0.001182,0.022806,-0.004812,0.002065,-0.001742,0.001870,-0.000700,-0.001738,0.001844,-0.000774,1,1,1
1716181113.967625,1001.402527,565.099195,-0.001152,0.022821,-0.004821,0.002081,-0.001916,0.001729,-0.000200,-0.001920,0.001714,-0.000274,1,1,1
1716181114.167616,1001.402263,565.099437,-0.001147,0.022815,-0.004828,0.002085,-0.001916,0.001729,-0.000600,-0.001913,0.001705,-0.000674,1,1,1
1716181114.367616,1001.402043,565.099722,-0.001180,0.022822,-0.004802,0.002104,-0.001785,0.002065,0.000700,-0.001807,0.002071,0.000620,1,1,1
1716181114.567633,1001.402375,565.099769,-0.001189,0.022821,-0.004796,0.002121,-0.001773,0.002477,0.000200,-0.001788,0.002472,0.000111,1,1,1
1716181114.767618,1001.402724,565.099808,-0.001196,0.022823,-0.004790,0.002114,-0.001675,0.002499,0.000300,-0.001692,0.002496,0.000212,1,1,1
1716181114.967607,1001.402980,565.099900,-0.001195,0.022830,-0.004786,0.002126,-0.001654,0.002401,0.000600,-0.001676,0.002406,0.000515,1,1,1
1716181115.167794,1001.402749,565.100348,-0.001232,0.022828,-0.004763,0.002129,-0.001501,0.002639,0.000400,-0.001521,0.002640,0.000312,1,1,1
1716181115.367779,1001.402548,565.100603,-0.001199,0.022843,-0.004773,0.002128,-0.001437,0.002346,0.001400,-0.001473,0.002370,0.001320,1,1,1
1716181115.567758,1001.402679,565.100272,-0.001203,0.022860,-0.004758,0.002111,-0.001458,0.002444,0.001600,-0.001499,0.002472,0.001517,1,1,1
1716181115.767745,1001.402781,565.099922,-0.001179,0.022862,-0.004772,0.002107,-0.001341,0.001446,0.000900,-0.001365,0.001459,0.000842,1,1,1
1716181115.967727,1001.402916,565.099549,-0.001172,0.022880,-0.004763,0.002092,-0.000908,0.001336,0.000900,-0.000931,0.001352,0.000853,1,1,1
1716181116.167781,1001.402756,565.099566,-0.001158,0.022883,-0.004770,0.002095,-0.001051,0.000588,0.000500,-0.001062,0.000594,0.000467,1,1,1
1716181116.367758,1001.402714,565.099619,-0.001157,0.022874,-0.004778,0.002091,-0.000562,0.000696,0.000400,-0.000573,0.000702,0.000374,1,1,1
1716181116.567734,1001.403066,565.099366,-0.001181,0.022857,-0.004775,0.002103,-0.000248,0.000662,0.000300,-0.000256,0.000668,0.000280,1,1,1
1716181116.767712,1001.403358,565.099123,-0.001207,0.022850,-0.004763,0.002134,-0.000422,0.000522,-0.000300,-0.000419,0.000513,-0.000319,1,1,1
1716181116.967687,1001.403685,565.098868,-0.001204,0.022877,-0.004744,0.002137,-0.000291,0.000858,-0.000200,-0.000291,0.000851,-0.000225,1,1,1
1716181117.167674,1001.403688,565.098908,-0.001227,0.022865,-0.004738,0.002144,-0.000422,0.000522,-0.000300,-0.000419,0.000513,-0.000319,1,1,1
1716181117.367658,1001.403644,565.099017,-0.001227,0.022865,-0.004738,0.002155,0.000164,0.000650,0.000100,0.000159,0.000653,0.000088,1,1,1
1716181117.567638,1001.403731,565.098920,-0.001236,0.022861,-0.004736,0.002141,-0.000074,0.000803,0.000000,-0.000078,0.000802,-0.000020,1,1,1
1716181117.767641,1001.403829,565.098875,-0.001246,0.022840,-0.004745,0.002159,0.000186,0.000553,0.000600,0.000172,0.000567,0.000591,1,1,1
1716181117.967621,1001.404032,565.098810,-0.001234,0.022854,-0.004742,0.002160,0.000619,0.000443,0.000500,0.000608,0.000458,0.000501,1,1,1
1716181118.167615,1001.404178,565.098800,-0.001253,0.022841,-0.004740,0.002131,0.000262,0.000672,0.000300,0.000253,0.000680,0.000289,1,1,1
1716181118.367599,1001.404246,565.098884,-0.001263,0.022830,-0.004742,0.002150,0.000338,0.000791,0.000700,0.000322,0.000808,0.000688,1,1,1
1716181118.567581,1001.404464,565.098758,-0.001256,0.022827,-0.004748,0.002165,0.000686,0.001072,0.000800,0.000666,0.001093,0.000788,1,1,1
1716181118.767677,1001.404718,565.098642,-0.001226,0.022826,-0.004769,0.002173,0.001022,0.000941,0.000300,0.001012,0.000953,0.000297,1,1,1
1716181118.967656,1001.404992,565.098506,-0.001251,0.022832,-0.004747,0.002163,0.000729,0.000877,0.000000,0.000725,0.000880,-0.000007,1,1,1
1716181119.167647,1001.405118,565.098637,-0.001282,0.022822,-0.004735,0.002179,0.000491,0.001029,0.000200,0.000482,0.001036,0.000185,1,1,1
1716181119.367631,1001.405257,565.098792,-0.001291,0.022811,-0.004738,0.002176,0.000793,0.000584,0.000700,0.000777,0.000604,0.000701,1,1,1
1716181119.567617,1001.404621,565.099310,-0.001274,0.022816,-0.004745,0.002179,-0.000050,0.001627,0.000200,-0.000061,0.001631,0.000162,1,1,1
1716181119.767602,1001.404023,565.099803,-0.001283,0.022822,-0.004735,0.002149,-0.000634,0.002420,-0.000300,-0.000640,0.002410,-0.000367,1,1,1
1716181119.967588,1001.403379,565.100370,-0.001288,0.022814,-0.004738,0.002134,-0.001013,0.002747,-0.000400,-0.001018,0.002732,-0.000481,1,1,1
1716181120.167575,1001.403048,565.100938,-0.001278,0.022805,-0.004751,0.002108,-0.001337,0.003290,-0.000200,-0.001349,0.003277,-0.000299,1,1,1
1716181120.367561,1001.402840,565.101507,-0.001275,0.022805,-0.004753,0.002116,-0.000968,0.003473,-0.000400,-0.000977,0.003458,-0.000497,1,1,1
1716181120.567560,1001.403158,565.101232,-0.001262,0.022824,-0.004747,0.002134,-0.000677,0.002616,-0.000500,-0.000680,0.002600,-0.000572,1,1,1
1716181120.767545,1001.403508,565.100956,-0.001267,0.022835,-0.004735,0.002126,-0.000546,0.002952,-0.000500,-0.000551,0.002937,-0.000577,1,1,1
1716181120.967538,1001.403889,565.100693,-0.001284,0.022822,-0.004734,0.002108,-0.000112,0.002842,-0.000800,-0.000111,0.002823,-0.000866,1,1,1
1716181121.167550,1001.403966,565.101117,-0.001293,0.022822,-0.004728,0.002117,0.000300,0.002830,-0.000400,0.000294,0.002822,-0.000459,1,1,1
1716181121.367541,1001.404001,565.101545,-0.001314,0.022817,-0.004718,0.002123,0.000214,0.003221,-0.000900,0.000215,0.003201,-0.000969,1,1,1
1716181121.567542,1001.404068,565.100959,-0.001339,0.022818,-0.004701,0.002131,0.000300,0.002830,-0.000800,0.000301,0.002813,-0.000859,1,1,1
1716181121.767538,1001.404179,565.100463,-0.001364,0.022810,-0.004691,0.002152,0.000474,0.002971,-0.000600,0.000471,0.002959,-0.000659,1,1,1
1716181121.967524,1001.404335,565.099933,-0.001332,0.022824,-0.004702,0.002142,0.000319,0.001811,-0.000900,0.000327,0.001791,-0.000935,1,1,1
1716181122.167526,1001.404424,565.100217,-0.001354,0.022816,-0.004693,0.002176,0.000667,0.002092,-0.001400,0.000683,0.002063,-0.001435,1,1,1
1716181122.367520,1001.404531,565.100649,-0.001387,0.022805,-0.004681,0.002181,0.000743,0.002211,-0.001000,0.000751,0.002191,-0.001036,1,1,1
1716181122.567512,1001.404534,565.100338,-0.001378,0.022814,-0.004680,0.002179,0.000688,0.001994,-0.001400,0.000705,0.001965,-0.001432,1,1,1
1716181122.767509,1001.404552,565.100118,-0.001414,0.022808,-0.004660,0.002183,0.000569,0.002070,-0.001300,0.000583,0.002043,-0.001336,1,1,1
1716181122.967503,1001.404544,565.099894,-0.001389,0.022796,-0.004686,0.002193,0.000448,0.001225,-0.001000,0.000460,0.001204,-0.001019,1,1,1
1716181123.167518,1001.404616,565.100072,-0.001336,0.022823,-0.004699,0.002194,0.000460,0.001637,-0.001300,0.000476,0.001609,-0.001328,1,1,1
1716181123.367514,1001.404816,565.100299,-0.001383,0.022807,-0.004681,0.002183,0.001012,0.001451,-0.001400,0.001031,0.001424,-0.001414,1,1,1
1716181123.567535,1001.405402,565.100163,-0.001409,0.022795,-0.004673,0.002164,0.001555,0.001775,-0.001600,0.001576,0.001746,-0.001611,1,1,1
1716181123.767532,1001.406008,565.100078,-0.001402,0.022795,-0.004678,0.002149,0.002065,0.001785,-0.001200,0.002079,0.001767,-0.001202,1,1,1
1716181123.967518,1001.406675,565.100053,-0.001406,0.022802,-0.004671,0.002132,0.002294,0.002142,-0.001900,0.002318,0.002110,-0.001906,1,1,1
1716181124.167521,1001.407189,565.100399,-0.001375,0.022819,-0.004677,0.002128,0.002468,0.002283,-0.001500,0.002484,0.002261,-0.001506,1,1,1
1716181124.367509,1001.407548,565.100718,-0.001400,0.022802,-0.004674,0.002117,0.002804,0.002152,-0.001500,0.002821,0.002131,-0.001497,1,1,1
1716181124.567506,1001.407045,565.100673,-0.001366,0.022818,-0.004684,0.002122,0.002306,0.002554,-0.001800,0.002326,0.002524,-0.001815,1,1,1
1716181124.767496,1001.406473,565.100747,-0.001361,0.022817,-0.004687,0.002143,0.001482,0.002578,-0.002200,0.001510,0.002535,-0.002231,1,1,1
1716181124.967497,1001.405840,565.100883,-0.001361,0.022815,-0.004689,0.002180,0.000929,0.002764,-0.002200,0.000956,0.002718,-0.002245,1,1,1
1716181125.167516,1001.405878,565.101325,-0.001357,0.022813,-0.004694,0.002173,0.000886,0.002959,-0.002000,0.000909,0.002917,-0.002050,1,1,1
1716181125.367502,1001.405989,565.101732,-0.001352,0.022839,-0.004677,0.002177,0.001124,0.002806,-0.002200,0.001151,0.002762,-0.002242,1,1,1
1716181125.567493,1001.405827,565.101243,-0.001289,0.022860,-0.004702,0.002173,0.001546,0.002285,-0.002200,0.001575,0.002242,-0.002223,1,1,1
1716181125.767494,1001.405668,565.100753,-0.001267,0.022852,-0.004722,0.002170,0.000917,0.002351,-0.002300,0.000948,0.002303,-0.002336,1,1,1
1716181125.967485,1001.405517,565.100280,-0.001244,0.022859,-0.004732,0.002173,0.000905,0.001939,-0.002200,0.000936,0.001893,-0.002227,1,1,1
1716181126.167521,1001.405702,565.100543,-0.001207,0.022857,-0.004757,0.002176,0.001589,0.002089,-0.002000,0.001615,0.002052,-0.002018,1,1,1
1716181126.367569,1001.406079,565.100830,-0.001208,0.022876,-0.004742,0.002166,0.001989,0.001665,-0.002600,0.002029,0.001616,-0.002601,1,1,1
1716181126.567560,1001.406442,565.100638,-0.001189,0.022880,-0.004751,0.002125,0.002227,0.001513,-0.002300,0.002262,0.001472,-0.002293,1,1,1
1716181126.767554,1001.406682,565.100533,-0.001218,0.022864,-0.004745,0.002129,0.001772,0.001720,-0.001700,0.001795,0.001690,-0.001706,1,1,1
1716181126.967741,1001.406839,565.100400,-0.001231,0.022853,-0.004745,0.002121,0.001110,0.001472,-0.002200,0.001143,0.001428,-0.002212,1,1,1
1716181127.167767,1001.407082,565.100689,-0.001212,0.022862,-0.004751,0.002117,0.001534,0.001873,-0.001300,0.001549,0.001851,-0.001314,1,1,1
1716181127.367748,1001.407067,565.100852,-0.001195,0.022868,-0.004757,0.002121,0.000591,0.001973,-0.001000,0.000600,0.001952,-0.001034,1,1,1
1716181127.567729,1001.406225,565.100378,-0.001133,0.022887,-0.004783,0.002129,0.000383,0.001518,-0.000900,0.000393,0.001499,-0.000927,1,1,1
1716181127.767730,1001.405349,565.099851,-0.001077,0.022893,-0.004815,0.002156,-0.000279,0.001270,-0.001100,-0.000265,0.001243,-0.001134,1,1,1
1716181127.967734,1001.404496,565.099329,-0.001051,0.022904,-0.004823,0.002163,-0.000693,0.000360,-0.000700,-0.000682,0.000340,-0.000721,1,1,1
1716181128.167718,1001.404109,565.099277,-0.001099,0.022891,-0.004802,0.002170,-0.001484,0.000698,-0.000700,-0.001474,0.000674,-0.000743,1,1,1
1716181128.367740,1001.403838,565.099405,-0.001054,0.022917,-0.004811,0.002167,-0.001246,0.000545,-0.000500,-0.001239,0.000528,-0.000535,1,1,1
1716181128.567726,1001.403618,565.099774,-0.001078,0.022904,-0.004806,0.002157,-0.001308,0.001760,-0.000200,-0.001312,0.001749,-0.000264,1,1,1
1716181128.767719,1001.403378,565.100174,-0.001080,0.022904,-0.004805,0.002152,-0.001515,0.001305,-0.000600,-0.001510,0.001284,-0.000657,1,1,1
1716181128.967716,1001.403134,565.100498,-0.001132,0.022879,-0.004789,0.002143,-0.001525,0.001815,-0.000700,-0.001520,0.001791,-0.000769,1,1,1
1716181129.167714,1001.402843,565.100909,-0.001143,0.022874,-0.004786,0.002136,-0.001773,0.002477,-0.000500,-0.001775,0.002456,-0.000589,1,1,1
1716181129.367697,1001.402765,565.101282,-0.001113,0.022855,-0.004820,0.002131,-0.000970,0.002551,-0.000900,-0.000965,0.002525,-0.000975,1,1,1
1716181129.567692,1001.403309,565.101261,-0.001158,0.022864,-0.004784,0.002147,-0.000753,0.002497,-0.000500,-0.000756,0.002481,-0.000570,1,1,1
1716181129.767676,1001.403848,565.101190,-0.001147,0.022872,-0.004785,0.002154,-0.000634,0.002420,-0.000900,-0.000629,0.002396,-0.000966,1,1,1
1716181129.967661,1001.404426,565.101011,-0.001193,0.022871,-0.004756,0.002152,-0.000072,0.001725,0.000000,-0.000080,0.001724,-0.000041,1,1,1
1716181130.167650,1001.404507,565.101360,-0.001208,0.022874,-0.004744,0.002173,-0.000048,0.002549,0.000200,-0.000064,0.002553,0.000141,1,1,1
1716181130.367639,1001.404464,565.101539,-0.001206,0.022881,-0.004739,0.002172,-0.000288,0.001780,0.000200,-0.000300,0.001782,0.000154,1,1,1
1716181130.567638,1001.404387,565.100878,-0.001209,0.022897,-0.004726,0.002150,-0.000267,0.001682,0.000500,-0.000284,0.001691,0.000456,1,1,1
1716181130.767629,1001.404265,565.100301,-0.001167,0.022897,-0.004753,0.002152,-0.000896,0.001749,0.000200,-0.000908,0.001748,0.000144,1,1,1
1716181130.967633,1001.404118,565.099724,-0.001142,0.022918,-0.004754,0.002160,-0.000746,0.001065,0.000000,-0.000751,0.001061,-0.000038,1,1,1
1716181131.167699,1001.403907,565.099732,-0.001146,0.022931,-0.004741,0.002159,-0.001115,0.000881,0.000100,-0.001121,0.000878,0.000059,1,1,1
1716181131.367692,1001.403661,565.099785,-0.001160,0.022927,-0.004735,0.002149,-0.001041,0.000079,0.000200,-0.001045,0.000078,0.000179,1,1,1
1716181131.567678,1001.403321,565.099514,-0.001177,0.022936,-0.004716,0.002157,-0.001899,-0.000212,-0.000600,-0.001886,-0.000236,-0.000630,1,1,1
1716181131.767667,1001.402955,565.099185,-0.001194,0.022919,-0.004719,0.002159,-0.001746,0.000026,-0.001200,-0.001724,-0.000010,-0.001232,1,1,1
1716181131.967670,1001.402612,565.098851,-0.001195,0.022923,-0.004715,0.002148,-0.002073,-0.000353,-0.001300,-0.002047,-0.000393,-0.001329,1,1,1
1716181132.167662,1001.402175,565.098758,-0.001200,0.022926,-0.004709,0.002161,-0.002180,0.000136,-0.001100,-0.002160,0.000099,-0.001143,1,1,1
1716181132.367663,1001.401771,565.098783,-0.001211,0.022899,-0.004723,0.002162,-0.001768,0.000124,-0.000900,-0.001751,0.000094,-0.000935,1,1,1
1716181132.567656,1001.402183,565.098616,-0.001258,0.022890,-0.004699,0.002169,-0.001258,0.000133,-0.001000,-0.001240,0.000104,-0.001026,1,1,1
1716181132.767648,1001.402608,565.098513,-0.001270,0.022901,-0.004683,0.002192,-0.000986,0.000295,-0.001100,-0.000967,0.000265,-0.001124,1,1,1
1716181132.967643,1001.403073,565.098364,-0.001230,0.022917,-0.004697,0.002178,-0.000770,0.000241,-0.000600,-0.000759,0.000223,-0.000619,1,1,1
1716181133.167632,1001.403084,565.098337,-0.001226,0.022913,-0.004703,0.002170,-0.000629,0.000067,-0.000600,-0.000618,0.000050,-0.000613,1,1,1
1716181133.367632,1001.403086,565.098304,-0.001236,0.022909,-0.004699,0.002181,-0.000250,-0.000260,0.000300,-0.000254,-0.000254,0.000301,1,1,1
1716181133.567622,1001.403780,565.098051,-0.001202,0.022924,-0.004710,0.002180,0.000193,-0.000879,0.000500,0.000188,-0.000866,0.000523,1,1,1
1716181133.767605,1001.404521,565.097781,-0.001192,0.022934,-0.004709,0.002179,0.000574,-0.000283,0.000800,0.000561,-0.000262,0.000817,1,1,1
1716181133.967586,1001.405323,565.097500,-0.001172,0.022951,-0.004709,0.002155,0.001549,-0.000991,0.001000,0.001535,-0.000960,0.001051,1,1,1
1716181134.167580,1001.405674,565.097311,-0.001157,0.022959,-0.004712,0.002168,0.001310,-0.000838,0.001000,0.001296,-0.000809,0.001043,1,1,1
1716181134.367591,1001.405952,565.097277,-0.001126,0.022962,-0.004730,0.002158,0.001539,-0.000481,0.001200,0.001519,-0.000446,0.001239,1,1,1
1716181134.567579,1001.406118,565.097578,-0.001117,0.022968,-0.004731,0.002163,0.001063,-0.000176,0.000800,0.001048,-0.000152,0.000823,1,1,1
1716181134.767582,1001.406221,565.097909,-0.001092,0.022975,-0.004742,0.002188,0.001236,-0.000036,0.000400,0.001229,-0.000020,0.000423,1,1,1
1716181134.967598,1001.406315,565.098257,-0.001145,0.022950,-0.004727,0.002233,0.001691,-0.000243,0.000400,0.001685,-0.000225,0.000436,1,1,1
1716181135.167594,1001.406656,565.098231,-0.001144,0.022947,-0.004730,0.002208,0.001615,-0.000362,-0.000400,0.001624,-0.000363,-0.000362,1,1,1
1716181135.367595,1001.407019,565.098147,-0.001119,0.022941,-0.004751,0.002205,0.001789,-0.000221,-0.000800,0.001805,-0.000230,-0.000762,1,1,1
1716181135.567602,1001.406451,565.098533,-0.001143,0.022921,-0.004750,0.002188,0.001008,-0.000393,-0.001400,0.001035,-0.000420,-0.001372,1,1,1
1716181135.767641,1001.405901,565.098916,-0.001146,0.022908,-0.004758,0.002168,0.000607,0.000031,-0.001300,0.000631,0.000005,-0.001289,1,1,1
1716181135.967629,1001.405379,565.099243,-0.001161,0.022905,-0.004751,0.002144,0.000369,0.000183,-0.000700,0.000381,0.000169,-0.000697,1,1,1
1716181136.167670,1001.405310,565.099336,-0.001191,0.022892,-0.004741,0.002152,0.000629,-0.000067,-0.000900,0.000646,-0.000084,-0.000887,1,1,1
1716181136.367659,1001.405267,565.099288,-0.001183,0.022886,-0.004751,0.002181,0.000260,-0.000250,-0.001000,0.000279,-0.000271,-0.000989,1,1,1
1716181136.567677,1001.404668,565.098852,-0.001145,0.022877,-0.004782,0.002184,-0.000381,-0.000596,-0.001600,-0.000349,-0.000634,-0.001593,1,1,1
1716181136.767654,1001.404025,565.098441,-0.001144,0.022877,-0.004783,0.002197,-0.001334,0.000014,-0.001800,-0.001301,-0.000034,-0.001824,1,1,1
1716181136.967727,1001.403314,565.098159,-0.001117,0.022894,-0.004788,0.002227,-0.001963,0.000081,-0.001700,-0.001932,0.000032,-0.001737,1,1,1
1716181137.167716,1001.402829,565.098113,-0.001140,0.022905,-0.004764,0.002231,-0.002397,0.000190,-0.001800,-0.002364,0.000137,-0.001847,1,1,1
1716181137.367702,1001.402433,565.098235,-0.001133,0.022903,-0.004770,0.002252,-0.002461,0.000483,-0.001900,-0.002428,0.000428,-0.001955,1,1,1
1716181137.567849,1001.402610,565.098518,-0.001157,0.022897,-0.004760,0.002246,-0.002232,0.000841,-0.002100,-0.002197,0.000781,-0.002159,1,1,1
1716181137.767826,1001.402811,565.098841,-0.001135,0.022917,-0.004759,0.002236,-0.002220,0.001253,-0.002100,-0.002187,0.001193,-0.002168,1,1,1
1716181137.967801,1001.402986,565.099184,-0.001156,0.022921,-0.004742,0.002210,-0.002004,0.001198,-0.002600,-0.001961,0.001128,-0.002663,1,1,1
1716181138.167784,1001.402729,565.099415,-0.001145,0.022931,-0.004741,0.002215,-0.001830,0.001339,-0.002300,-0.001793,0.001277,-0.002363,1,1,1
1716181138.367762,1001.402637,565.099517,-0.001123,0.022924,-0.004761,0.002221,-0.001256,0.001055,-0.001400,-0.001235,0.001017,-0.001446,1,1,1
1716181138.567744,1001.403434,565.099314,-0.001128,0.022928,-0.004754,0.002208,-0.000474,0.001227,-0.001300,-0.000456,0.001194,-0.001336,1,1,1
1716181138.767727,1001.404296,565.099133,-0.001111,0.022936,-0.004759,0.002209,0.000186,0.000553,-0.001200,0.000205,0.000526,-0.001209,1,1,1
1716181138.967704,1001.405194,565.098879,-0.001136,0.022954,-0.004730,0.002199,0.001020,0.000019,-0.000800,0.001034,0.000006,-0.000781,1,1,1
1716181139.167696,1001.405571,565.098802,-0.001137,0.022957,-0.004727,0.002197,0.001334,-0.000014,-0.000700,0.001347,-0.000023,-0.000675,1,1,1
1716181139.367691,1001.405687,565.098781,-0.001114,0.022963,-0.004737,0.002209,0.001063,-0.000176,-0.001800,0.001096,-0.000212,-0.001776,1,1,1
1716181139.567687,1001.405406,565.098566,-0.001120,0.022966,-0.004731,0.002195,0.000791,-0.000338,-0.002000,0.000829,-0.000380,-0.001977,1,1,1
1716181139.767668,1001.405137,565.098293,-0.001143,0.022956,-0.004724,0.002167,0.000346,-0.000641,-0.001000,0.000367,-0.000662,-0.000979,1,1,1
1716181139.967651,1001.404857,565.098052,-0.001150,0.022948,-0.004725,0.002161,0.000129,-0.000586,-0.001100,0.000152,-0.000610,-0.001084,1,1,1
1716181140.167640,1001.404810,565.097890,-0.001141,0.022941,-0.004737,0.002159,0.000052,-0.000705,-0.000800,0.000071,-0.000723,-0.000783,1,1,1
1716181140.367623,1001.404812,565.097905,-0.001154,0.022930,-0.004736,0.002175,0.000260,-0.000250,-0.001000,0.000279,-0.000272,-0.000989,1,1,1
1716181140.567613,1001.404791,565.098300,-0.001176,0.022925,-0.004726,0.002195,0.000098,0.000021,-0.001000,0.000116,-0.000001,-0.000998,1,1,1
1716181140.767610,1001.404782,565.098693,-0.001212,0.022910,-0.004714,0.002206,0.000195,0.000043,-0.000900,0.000212,0.000023,-0.000897,1,1,1
1716181140.967628,1001.404790,565.099094,-0.001223,0.022904,-0.004712,0.002210,-0.000150,0.000684,-0.001300,-0.000129,0.000653,-0.001318,1,1,1
1716181141.167625,1001.404808,565.099314,-0.001228,0.022911,-0.004703,0.002219,-0.000074,0.000803,-0.001400,-0.000052,0.000770,-0.001419,1,1,1
1716181141.391610,1001.404841,565.099485,-0.001246,0.022906,-0.004695,0.002217,0.000079,0.001041,-0.001700,0.000105,0.001002,-0.001722,1,1,1
1716181141.591629,1001.405086,565.099593,-0.001231,0.022898,-0.004711,0.002204,0.000350,0.001203,-0.001600,0.000374,0.001168,-0.001620,1,1,1
1716181141.791619,1001.405305,565.099738,-0.001221,0.022907,-0.004710,0.002200,0.000176,0.001063,-0.001000,0.000190,0.001040,-0.001021,1,1,1
1716181141.991607,1001.405513,565.099843,-0.001241,0.022899,-0.004703,0.002199,0.000491,0.001029,-0.000800,0.000500,0.001013,-0.000814,1,1,1
1716181142.191608,1001.405693,565.100027,-0.001241,0.022882,-0.004717,0.002191,0.001000,0.001039,-0.001300,0.001019,0.001014,-0.001305,1,1,1
1716181142.391620,1001.405842,565.100201,-0.001225,0.022886,-0.004723,0.002184,0.000500,0.000519,-0.001000,0.000516,0.000499,-0.001002,1,1,1
1716181142.591610,1001.405783,565.100150,-0.001217,0.022896,-0.004721,0.002189,0.000653,0.000758,-0.000600,0.000660,0.000747,-0.000605,1,1,1
1716181142.791607,1001.405677,565.100114,-0.001229,0.022886,-0.004721,0.002200,0.000393,0.001008,-0.000900,0.000405,0.000989,-0.000915,1,1,1
1716181142.991595,1001.405590,565.100056,-0.001183,0.022894,-0.004745,0.002204,0.000264,0.001594,-0.001400,0.000283,0.001563,-0.001431,1,1,1
1716181143.191593,1001.405587,565.100290,-0.001150,0.022914,-0.004751,0.002222,0.000079,0.001041,-0.001400,0.000099,0.001009,-0.001422,1,1,1
1716181143.391582,1001.405595,565.100416,-0.001162,0.022911,-0.004746,0.002221,0.000076,0.000119,-0.001300,0.000100,0.000090,-0.001301,1,1,1
1716181143.591570,1001.405256,565.099572,-0.001146,0.022926,-0.004745,0.002189,-0.000791,0.000338,-0.000700,-0.000780,0.000318,-0.000722,1,1,1
1716181143.791554,1001.404828,565.098671,-0.001124,0.022928,-0.004758,0.002176,-0.000815,-0.000486,-0.000600,-0.000801,-0.000504,-0.000603,1,1,1
1716181143.991539,1001.404431,565.097741,-0.001109,0.022956,-0.004746,0.002179,-0.000774,-0.001603,-0.000400,-0.000759,-0.001616,-0.000377,1,1,1
1716181144.191534,1001.404210,565.097380,-0.001119,0.022966,-0.004732,0.002181,-0.001003,-0.001961,-0.000100,-0.000992,-0.001968,-0.000073,1,1,1
1716181144.391527,1001.404122,565.097181,-0.001125,0.022949,-0.004741,0.002200,-0.001046,-0.001765,-0.000900,-0.001021,-0.001791,-0.000878,1,1,1
1716181144.591521,1001.404388,565.097343,-0.001174,0.022948,-0.004710,0.002208,-0.001317,-0.001927,-0.000800,-0.001293,-0.001952,-0.000780,1,1,1
1716181144.791520,1001.404659,565.097497,-0.001202,0.022954,-0.004687,0.002207,-0.000774,-0.001603,-0.000200,-0.000763,-0.001611,-0.000177,1,1,1
1716181144.991512,1001.404891,565.097594,-0.001205,0.022958,-0.004682,0.002206,-0.000762,-0.001191,0.000100,-0.000758,-0.001192,0.000113,1,1,1
1716181145.191531,1001.404751,565.097420,-0.001208,0.022934,-0.004698,0.002250,-0.000503,-0.001441,0.000400,-0.000503,-0.001434,0.000424,1,1,1
1716181145.391530,1001.404642,565.097195,-0.001194,0.022935,-0.004707,0.002263,-0.000350,-0.001203,0.000500,-0.000354,-0.001193,0.000521,1,1,1
1716181145.591518,1001.404719,565.097300,-0.001215,0.022916,-0.004707,0.002269,-0.000448,-0.001225,-0.000300,-0.000437,-0.001233,-0.000280,1,1,1
1716181145.791513,1001.404817,565.097338,-0.001243,0.022902,-0.004700,0.002244,-0.000393,-0.001008,-0.000100,-0.000386,-0.001012,-0.000084,1,1,1
1716181145.991499,1001.404865,565.097427,-0.001230,0.022907,-0.004704,0.002231,-0.000414,-0.000910,-0.000800,-0.000395,-0.000930,-0.000786,1,1,1
1716181146.191511,1001.404831,565.097242,-0.001216,0.022897,-0.004722,0.002246,-0.000219,-0.000867,-0.000800,-0.000200,-0.000886,-0.000784,1,1,1
1716181146.391517,1001.404725,565.097097,-0.001174,0.022916,-0.004734,0.002254,-0.000252,-0.001182,-0.001100,-0.000227,-0.001208,-0.001077,1,1,1
1716181146.591511,1001.404451,565.097125,-0.001146,0.022920,-0.004749,0.002237,-0.000567,-0.001148,-0.001200,-0.000539,-0.001178,-0.001184,1,1,1
1716181146.791497,1001.404210,565.097132,-0.001159,0.022914,-0.004745,0.002222,-0.000469,-0.001127,-0.000700,-0.000451,-0.001145,-0.000683,1,1,1
1716181146.991490,1001.403965,565.097235,-0.001162,0.022902,-0.004753,0.002215,-0.000729,-0.000877,-0.001400,-0.000699,-0.000912,-0.001393,1,1,1
1716181147.191492,1001.403762,565.097032,-0.001160,0.022911,-0.004747,0.002228,-0.000838,-0.001310,-0.000800,-0.000818,-0.001332,-0.000785,1,1,1
1716181147.391493,1001.403738,565.097027,-0.001160,0.022908,-0.004749,0.002233,-0.000176,-0.001063,-0.000500,-0.000162,-0.001075,-0.000479,1,1,1
1716181147.591485,1001.404085,565.097456,-0.001138,0.022924,-0.004751,0.002225,-0.000100,-0.000943,-0.000100,-0.000094,-0.000946,-0.000080,1,1,1
1716181147.791479,1001.404428,565.097905,-0.001155,0.022913,-0.004749,0.002229,-0.000305,-0.000476,-0.000400,-0.000295,-0.000487,-0.000395,1,1,1
1716181147.991470,1001.404763,565.098340,-0.001161,0.022921,-0.004738,0.002228,0.000098,0.000021,0.000100,0.000096,0.000024,0.000101,1,1,1
1716181148.191481,1001.404756,565.098368,-0.001155,0.022913,-0.004748,0.002229,-0.000326,-0.000379,0.000600,-0.000336,-0.000367,0.000602,1,1,1
1716181148.391472,1001.404602,565.098412,-0.001165,0.022910,-0.004744,0.002234,-0.000336,0.000131,0.000500,-0.000346,0.000141,0.000491,1,1,1
1716181148.591483,1001.404399,565.098506,-0.001121,0.022938,-0.004751,0.002199,-0.001063,0.000176,-0.000200,-0.001059,0.000166,-0.000223,1,1,1
1716181148.791472,1001.404091,565.098624,-0.001149,0.022922,-0.004746,0.002199,-0.001529,-0.000029,-0.000400,-0.001522,-0.000046,-0.000427,1,1,1
1716181148.991473,1001.403758,565.098671,-0.001178,0.022914,-0.004733,0.002199,-0.001551,0.000069,-0.000200,-0.001547,0.000056,-0.000230,1,1,1
1716181149.191536,1001.403416,565.098692,-0.001197,0.022911,-0.004723,0.002215,-0.001660,-0.000365,0.000000,-0.001658,-0.000373,-0.000022,1,1,1
1716181149.391541,1001.403188,565.098692,-0.001196,0.022924,-0.004714,0.002212,-0.001801,-0.000191,-0.000200,-0.001796,-0.000204,-0.000229,1,1,1
1716181149.591573,1001.403593,565.098765,-0.001236,0.022909,-0.004699,0.002224,-0.001563,-0.000343,-0.000300,-0.001555,-0.000358,-0.000321,1,1,1
1716181149.791576,1001.404077,565.098792,-0.001221,0.022903,-0.004714,0.002231,-0.000662,-0.000248,0.000000,-0.000661,-0.000251,-0.000006,1,1,1
1716181149.991584,1001.404608,565.098828,-0.001243,0.022906,-0.004697,0.002237,-0.000293,-0.000064,-0.000900,-0.000276,-0.000086,-0.000904,1,1,1
1716181150.191580,1001.404624,565.098844,-0.001260,0.022904,-0.004687,0.002252,-0.000195,-0.000043,-0.000200,-0.000191,-0.000048,-0.000203,1,1,1
1716181150.391572,1001.404675,565.098774,-0.001276,0.022906,-0.004676,0.002248,-0.000336,0.000131,-0.000200,-0.000333,0.000125,-0.000209,1,1,1
1716181150.591567,1001.404902,565.098600,-0.001286,0.022911,-0.004665,0.002234,0.000205,-0.000467,0.000200,0.000203,-0.000461,0.000214,1,1,1
1716181150.791562,1001.405117,565.098428,-0.001298,0.022913,-0.004656,0.002234,-0.000076,-0.000119,0.000300,-0.000081,-0.000113,0.000301,1,1,1
1716181150.991547,1001.405316,565.098292,-0.001281,0.022906,-0.004672,0.002222,0.000043,-0.000195,-0.000100,0.000046,-0.000197,-0.000095,1,1,1
1716181151.191549,1001.405363,565.098175,-0.001258,0.022913,-0.004681,0.002211,0.000183,-0.000369,-0.000400,0.000193,-0.000377,-0.000388,1,1,1
1716181151.391538,1001.405481,565.098126,-0.001272,0.022908,-0.004677,0.002224,0.000681,-0.000772,-0.000600,0.000696,-0.000782,-0.000570,1,1,1
1716181151.591525,1001.405704,565.098085,-0.001305,0.022890,-0.004669,0.002235,0.000596,-0.000381,-0.000700,0.000610,-0.000394,-0.000680,1,1,1
1716181151.791512,1001.405939,565.098054,-0.001329,0.022873,-0.004666,0.002238,0.000693,-0.000360,-0.000600,0.000706,-0.000370,-0.000579,1,1,1
1716181151.991503,1001.406179,565.098049,-0.001346,0.022868,-0.004659,0.002239,0.001084,-0.000274,-0.000500,0.001094,-0.000280,-0.000474,1,1,1
1716181152.191508,1001.406410,565.098061,-0.001347,0.022865,-0.004660,0.002269,0.001356,-0.000112,-0.000900,0.001372,-0.000125,-0.000872,1,1,1
1716181152.391495,1001.406780,565.097954,-0.001355,0.022876,-0.004647,0.002247,0.001594,-0.000264,-0.000800,0.001610,-0.000274,-0.000764,1,1,1
1716181152.591484,1001.407461,565.097642,-0.001367,0.022886,-0.004631,0.002249,0.002070,-0.000569,-0.001400,0.002098,-0.000590,-0.001348,1,1,1
1716181152.791512,1001.408168,565.097357,-0.001329,0.022904,-0.004642,0.002263,0.002883,-0.001005,-0.001500,0.002915,-0.001024,-0.001423,1,1,1
1716181152.991500,1001.408919,565.097082,-0.001320,0.022915,-0.004640,0.002253,0.003393,-0.000995,-0.001400,0.003422,-0.001010,-0.001314,1,1,1
1716181153.191494,1001.409607,565.096837,-0.001351,0.022920,-0.004616,0.002267,0.003424,-0.001603,-0.001000,0.003449,-0.001608,-0.000900,1,1,1
1716181153.391481,1001.409724,565.096799,-0.001333,0.022934,-0.004617,0.002264,0.002914,-0.001613,-0.000600,0.002932,-0.001611,-0.000509,1,1,1
1716181153.591468,1001.408880,565.097160,-0.001283,0.022951,-0.004636,0.002265,0.002318,-0.001231,-0.000900,0.002340,-0.001240,-0.000829,1,1,1
1716181153.791459,1001.408102,565.097488,-0.001288,0.022937,-0.004644,0.002245,0.002340,-0.001329,-0.000900,0.002362,-0.001337,-0.000826,1,1,1
1716181153.991452,1001.407289,565.097889,-0.001280,0.022926,-0.004658,0.002274,0.002037,-0.000884,-0.000700,0.002054,-0.000889,-0.000642,1,1,1
1716181154.191455,1001.407668,565.097753,-0.001275,0.022932,-0.004656,0.002259,0.002351,-0.000917,-0.000800,0.002370,-0.000923,-0.000736,1,1,1
1716181154.391451,1001.407680,565.097799,-0.001288,0.022947,-0.004636,0.002269,0.001918,-0.000807,-0.000600,0.001932,-0.000811,-0.000546,1,1,1
1716181154.591444,1001.407115,565.098252,-0.001306,0.022935,-0.004633,0.002257,0.001572,-0.000167,-0.001200,0.001595,-0.000186,-0.001167,1,1,1
1716181154.791445,1001.406538,565.098731,-0.001290,0.022924,-0.004653,0.002254,0.001236,-0.000036,-0.001500,0.001264,-0.000064,-0.001476,1,1,1
1716181154.991435,1001.405997,565.099172,-0.001302,0.022916,-0.004651,0.002254,0.001020,0.000019,-0.001300,0.001043,-0.000005,-0.001281,1,1,1
1716181155.191430,1001.406137,565.099237,-0.001289,0.022908,-0.004666,0.002252,0.000879,0.000193,-0.001900,0.000913,0.000154,-0.001887,1,1,1
1716181155.391424,1001.406166,565.099112,-0.001339,0.022891,-0.004646,0.002252,0.001194,0.000160,-0.001600,0.001222,0.000129,-0.001581,1,1,1
1716181155.591417,1001.405974,565.098739,-0.001286,0.022905,-0.004670,0.002232,0.001063,-0.000176,-0.001700,0.001095,-0.000209,-0.001676,1,1,1
1716181155.791419,1001.405830,565.098407,-0.001286,0.022896,-0.004676,0.002237,0.001234,-0.000958,-0.001200,0.001260,-0.000978,-0.001155,1,1,1
1716181155.991410,1001.405751,565.098073,-0.001305,0.022889,-0.004670,0.002241,0.001115,-0.000881,-0.001000,0.001137,-0.000898,-0.000959,1,1,1
1716181156.191413,1001.405995,565.097847,-0.001293,0.022880,-0.004684,0.002232,0.001277,-0.001153,-0.001200,0.001304,-0.001173,-0.001150,1,1,1
1716181156.391408,1001.406038,565.097876,-0.001281,0.022864,-0.004704,0.002240,0.000855,-0.000631,-0.001100,0.000878,-0.000652,-0.001069,1,1,1
1716181156.591406,1001.405767,565.098327,-0.001270,0.022862,-0.004712,0.002249,0.000476,-0.000305,-0.000900,0.000494,-0.000323,-0.000884,1,1,1
1716181156.791443,1001.405475,565.098792,-0.001276,0.022835,-0.004729,0.002258,0.000250,0.000260,-0.001200,0.000271,0.000234,-0.001201,1,1,1
1716181156.991456,1001.405162,565.099326,-0.001264,0.022825,-0.004745,0.002274,0.000164,0.000650,-0.001500,0.000189,0.000617,-0.001511,1,1,1
1716181157.191467,1001.405153,565.099572,-0.001275,0.022822,-0.004740,0.002288,0.000329,0.001301,-0.001800,0.000356,0.001261,-0.001823,1,1,1
1716181157.391458,1001.405321,565.099989,-0.001320,0.022817,-0.004714,0.002293,0.000417,0.001832,-0.001200,0.000430,0.001806,-0.001234,1,1,1
1716181157.591465,1001.405730,565.100730,-0.001326,0.022813,-0.004714,0.002301,0.000767,0.003035,-0.001600,0.000782,0.003002,-0.001654,1,1,1
1716181157.791455,1001.406164,565.101497,-0.001358,0.022807,-0.004698,0.002287,0.000962,0.003078,-0.001200,0.000970,0.003055,-0.001252,1,1,1
1716181157.991446,1001.406551,565.102297,-0.001344,0.022790,-0.004720,0.002278,0.001288,0.003457,-0.000900,0.001289,0.003442,-0.000955,1,1,1
1716181158.191463,1001.406839,565.103052,-0.001358,0.022789,-0.004711,0.002258,0.001355,0.004086,-0.000500,0.001345,0.004080,-0.000568,1,1,1
1716181158.391456,1001.406739,565.103230,-0.001352,0.022794,-0.004711,0.002253,0.001550,0.004129,-0.000600,0.001542,0.004122,-0.000665,1,1,1
1716181158.591455,1001.406168,565.102662,-0.001340,0.022795,-0.004718,0.002267,0.001517,0.003814,-0.000300,0.001505,0.003814,-0.000359,1,1,1
1716181158.791482,1001.405609,565.102154,-0.001347,0.022794,-0.004714,0.002272,0.000898,0.003371,0.000100,0.000880,0.003377,0.000040,1,1,1
1716181158.991476,1001.405062,565.101625,-0.001277,0.022791,-0.004762,0.002269,0.000419,0.002754,-0.000300,0.000412,0.002749,-0.000355,1,1,1
1716181159.191483,1001.405115,565.102154,-0.001256,0.022801,-0.004769,0.002272,0.000822,0.003252,-0.000500,0.000816,0.003244,-0.000559,1,1,1
1716181159.391477,1001.405307,565.102516,-0.001226,0.022809,-0.004781,0.002274,0.000367,0.003459,-0.000500,0.000360,0.003449,-0.000572,1,1,1
1716181159.591468,1001.405567,565.102342,-0.001251,0.022798,-0.004774,0.002263,-0.000036,0.002961,-0.000800,-0.000035,0.002942,-0.000868,1,1,1
1716181159.791461,1001.405759,565.102196,-0.001247,0.022804,-0.004771,0.002276,0.000278,0.002928,-0.000700,0.000278,0.002913,-0.000761,1,1,1
1716181160.007477,1001.405998,565.102079,-0.001211,0.022807,-0.004794,0.002268,0.000843,0.003154,-0.000700,0.000841,0.003142,-0.000756,1,1,1
1716181160.207626,1001.406158,565.102737,-0.001202,0.022799,-0.004805,0.002273,0.000962,0.003078,-0.000700,0.000961,0.003066,-0.000752,1,1,1
1716181160.407617,1001.406279,565.102685,-0.001205,0.022800,-0.004802,0.002257,0.000571,0.002992,-0.000800,0.000572,0.002976,-0.000857,1,1,1
1716181160.607599,1001.406241,565.101922,-0.001217,0.022790,-0.004802,0.002252,0.000452,0.003068,-0.000400,0.000445,0.003061,-0.000461,1,1,1
1716181160.807582,1001.406141,565.101253,-0.001205,0.022808,-0.004796,0.002245,0.000202,0.002809,0.000100,0.000187,0.002811,0.000040,1,1,1
1716181161.007566,1001.406000,565.100669,-0.001157,0.022839,-0.004804,0.002250,-0.000200,0.002311,0.000900,-0.000227,0.002330,0.000843,1,1,1
1716181161.207561,1001.405924,565.101125,-0.001155,0.022832,-0.004810,0.002243,-0.000839,0.002887,0.000600,-0.000863,0.002896,0.000519,1,1,1
1716181161.407545,1001.405407,565.101393,-0.001140,0.022823,-0.004827,0.002265,-0.001165,0.002508,0.000400,-0.001184,0.002511,0.000322,1,1,1
1716181161.607543,1001.404345,565.101285,-0.001165,0.022829,-0.004807,0.002279,-0.002142,0.002294,0.000800,-0.002167,0.002301,0.000708,1,1,1
1716181161.807530,1001.403210,565.101132,-0.001131,0.022825,-0.004831,0.002276,-0.002804,0.002046,0.000800,-0.002828,0.002050,0.000702,1,1,1
1716181162.007519,1001.402052,565.101007,-0.001136,0.022826,-0.004827,0.002275,-0.003705,0.001951,0.000500,-0.003722,0.001943,0.000388,1,1,1
1716181162.207533,1001.401295,565.101341,-0.001152,0.022798,-0.004839,0.002271,-0.003586,0.001875,0.000300,-0.003599,0.001863,0.000192,1,1,1
1716181162.407585,1001.400887,565.101602,-0.001142,0.022813,-0.004833,0.002292,-0.003207,0.001548,0.000700,-0.003226,0.001548,0.000606,1,1,1
1716181162.607569,1001.400968,565.101580,-0.001160,0.022789,-0.004839,0.002278,-0.003962,0.003123,0.000300,-0.003981,0.003109,0.000157,1,1,1
1716181162.807555,1001.400916,565.101642,-0.001141,0.022796,-0.004847,0.002274,-0.004191,0.002765,0.000600,-0.004214,0.002757,0.000461,1,1,1
1716181163.007542,1001.400854,565.101669,-0.001210,0.022767,-0.004824,0.002270,-0.003347,0.001722,0.000900,-0.003371,0.001725,0.000800,1,1,1
1716181163.207555,1001.400040,565.102148,-0.001230,0.022754,-0.004821,0.002269,-0.004417,0.003330,-0.000200,-0.004428,0.003302,-0.000356,1,1,1
1716181163.407544,1001.399830,565.102013,-0.001188,0.022797,-0.004815,0.002278,-0.003910,0.002418,0.000300,-0.003926,0.002404,0.000174,1,1,1
1716181163.607555,1001.400519,565.100985,-0.001263,0.022791,-0.004771,0.002285,-0.002873,0.000495,0.000900,-0.002891,0.000501,0.000836,1,1,1
1716181163.807545,1001.401175,565.099984,-0.001213,0.022817,-0.004785,0.002263,-0.003769,0.002244,-0.000500,-0.003770,0.002213,-0.000620,1,1,1
1716181164.007543,1001.401737,565.099047,-0.001193,0.022834,-0.004784,0.002247,-0.003340,0.000290,0.001100,-0.003361,0.000298,0.001032,1,1,1
1716181164.207540,1001.401094,565.099152,-0.001223,0.022800,-0.004790,0.002250,-0.002961,-0.000036,0.001300,-0.002984,-0.000021,0.001246,1,1,1
1716181164.407598,1001.400816,565.099533,-0.001196,0.022809,-0.004801,0.002247,-0.003447,0.000779,0.001500,-0.003478,0.000795,0.001419,1,1,1
1716181164.607587,1001.401019,565.100358,-0.001256,0.022792,-0.004775,0.002265,-0.002914,0.001613,0.001300,-0.002944,0.001627,0.001210,1,1,1
1716181164.807571,1001.401187,565.101166,-0.001290,0.022785,-0.004759,0.002277,-0.003369,0.001820,0.001300,-0.003400,0.001832,0.001197,1,1,1
1716181165.007556,1001.401338,565.102046,-0.001312,0.022787,-0.004742,0.002291,-0.003312,0.002958,0.000400,-0.003332,0.002950,0.000272,1,1,1
1716181165.207549,1001.400712,565.102672,-0.001280,0.022792,-0.004760,0.002281,-0.003007,0.003435,0.000300,-0.003028,0.003426,0.000167,1,1,1
1716181165.407573,1001.400319,565.102703,-0.001265,0.022794,-0.004768,0.002278,-0.003312,0.002958,0.000800,-0.003339,0.002959,0.000672,1,1,1
1716181165.607559,1001.400196,565.101982,-0.001244,0.022809,-0.004770,0.002283,-0.003095,0.002904,0.001100,-0.003128,0.002912,0.000977,1,1,1
1716181165.807541,1001.400080,565.101284,-0.001234,0.022838,-0.004755,0.002280,-0.003488,0.001896,0.001000,-0.003514,0.001901,0.000893,1,1,1
1716181166.007532,1001.399972,565.100631,-0.001209,0.022841,-0.004768,0.002279,-0.003543,0.001679,0.001000,-0.003568,0.001684,0.000897,1,1,1
1716181166.207523,1001.399220,565.101008,-0.001243,0.022828,-0.004756,0.002289,-0.002828,0.001222,0.001600,-0.002862,0.001244,0.001520,1,1,1
1716181166.407512,1001.399401,565.101278,-0.001231,0.022833,-0.004760,0.002298,-0.002883,0.001005,0.001000,-0.002905,0.001013,0.000924,1,1,1
1716181166.607500,1001.400601,565.101306,-0.001290,0.022827,-0.004726,0.002313,-0.003181,0.003294,0.001000,-0.003214,0.003300,0.000866,1,1,1
1716181166.807491,1001.401793,565.101414,-0.001309,0.022843,-0.004702,0.002318,-0.001558,0.001501,0.001800,-0.001598,0.001533,0.001736,1,1,1
1716181167.007503,1001.403073,565.101520,-0.001351,0.022842,-0.004675,0.002299,-0.000634,0.002420,0.000800,-0.000660,0.002435,0.000733,1,1,1
1716181167.207509,1001.402985,565.102042,-0.001355,0.022840,-0.004675,0.002306,-0.000612,0.002323,0.000500,-0.000632,0.002330,0.000436,1,1,1
1716181167.407502,1001.403180,565.102232,-0.001290,0.022905,-0.004668,0.002313,-0.003252,0.000822,0.001600,-0.003285,0.000842,0.001521,1,1,1
1716181167.607508,1001.403556,565.101780,-0.001284,0.022896,-0.004678,0.002289,0.000188,0.001475,0.000700,0.000168,0.001491,0.000669,1,1,1
1716181167.807496,1001.404004,565.101332,-0.001265,0.022889,-0.004695,0.002301,0.000245,0.002613,-0.000300,0.000239,0.002607,-0.000355,1,1,1
1716181168.007486,1001.404383,565.100850,-0.001228,0.022904,-0.004708,0.002283,-0.000052,0.000705,0.000300,-0.000061,0.000712,0.000283,1,1,1
1716181168.207509,1001.404469,565.101126,-0.001235,0.022899,-0.004708,0.002302,0.000731,0.001799,0.000800,0.000708,0.001820,0.000772,1,1,1
1716181168.407504,1001.404439,565.101081,-0.001241,0.022900,-0.004703,0.002307,0.000503,0.001441,0.000000,0.000496,0.001443,-0.000024,1,1,1
1716181168.607500,1001.404374,565.100725,-0.001253,0.022901,-0.004694,0.002318,0.000665,0.001170,0.000400,0.000652,0.001182,0.000385,1,1,1
1716181168.807491,1001.404371,565.100343,-0.001244,0.022912,-0.004692,0.002322,0.000793,0.000584,-0.001100,0.000811,0.000562,-0.001098,1,1,1
1716181169.007480,1001.404424,565.099953,-0.001241,0.022918,-0.004689,0.002321,0.000705,0.000052,-0.001100,0.000725,0.000031,-0.001088,1,1,1
1716181169.207499,1001.404584,565.099975,-0.001222,0.022918,-0.004701,0.002318,0.000305,0.000476,-0.002000,0.000340,0.000432,-0.002004,1,1,1
1716181169.407492,1001.404674,565.100061,-0.001212,0.022906,-0.004717,0.002316,0.001205,0.000572,-0.000800,0.001217,0.000559,-0.000791,1,1,1
1716181169.607492,1001.404761,565.100210,-0.001261,0.022884,-0.004701,0.002309,0.001077,0.001158,-0.000200,0.001075,0.001158,-0.000207,1,1,1
1716181169.807485,1001.404845,565.100393,-0.001271,0.022870,-0.004706,0.002312,0.000686,0.001072,-0.000800,0.000696,0.001057,-0.000812,1,1,1
1716181170.007472,1001.404924,565.100632,-0.001266,0.022872,-0.004708,0.002315,0.000893,0.001527,-0.000100,0.000888,0.001529,-0.000118,1,1,1
1716181170.207531,1001.405051,565.100987,-0.001303,0.022872,-0.004684,0.002325,0.000438,0.001734,0.000000,0.000430,0.001736,-0.000032,1,1,1
1716181170.407517,1001.405028,565.101223,-0.001284,0.022892,-0.004681,0.002325,0.000915,0.001429,0.000700,0.000895,0.001450,0.000684,1,1,1
1716181170.607509,1001.404458,565.100982,-0.001291,0.022883,-0.004683,0.002325,0.000069,0.001551,0.000800,0.000047,0.001569,0.000766,1,1,1
1716181170.807505,1001.403915,565.100737,-0.001310,0.022862,-0.004687,0.002325,0.000002,0.000922,0.000600,-0.000013,0.000935,0.000579,1,1,1
1716181171.031509,1001.403363,565.100401,-0.001297,0.022877,-0.004684,0.002309,-0.000953,0.000610,0.000600,-0.000967,0.000619,0.000568,1,1,1
1716181171.231550,1001.403226,565.100539,-0.001334,0.022865,-0.004669,0.002327,-0.000346,0.000641,0.000000,-0.000348,0.000639,-0.000021,1,1,1
1716181171.431546,1001.403429,565.100539,-0.001282,0.022873,-0.004697,0.002329,0.000164,0.000650,-0.000300,0.000167,0.000644,-0.000312,1,1,1
1716181171.631538,1001.404217,565.100339,-0.001273,0.022864,-0.004709,0.002316,0.001010,0.000529,0.000000,0.001007,0.000534,0.000006,1,1,1
1716181171.831566,1001.405009,565.100231,-0.001310,0.022845,-0.004700,0.002320,0.001077,0.001158,-0.000600,0.001082,0.001149,-0.000606,1,1,1
1716181172.031590,1001.405754,565.100226,-0.001280,0.022852,-0.004714,0.002325,0.001586,0.001167,-0.001000,0.001599,0.001152,-0.000997,1,1,1
1716181172.231601,1001.406122,565.100526,-0.001294,0.022835,-0.004717,0.002322,0.001827,0.001937,-0.000400,0.001825,0.001936,-0.000411,1,1,1
1716181172.431598,1001.406338,565.100773,-0.001320,0.022820,-0.004712,0.002306,0.002099,0.002099,-0.000500,0.002098,0.002098,-0.000509,1,1,1
1716181172.631590,1001.406225,565.100918,-0.001282,0.022813,-0.004742,0.002304,0.001937,0.002371,-0.000600,0.001936,0.002366,-0.000618,1,1,1
1716181172.831579,1001.406147,565.101156,-0.001253,0.022831,-0.004748,0.002305,0.001829,0.002859,-0.000600,0.001827,0.002854,-0.000631,1,1,1
1716181173.031565,1001.406133,565.101468,-0.001282,0.022817,-0.004739,0.002293,0.001634,0.002816,-0.000900,0.001637,0.002803,-0.000934,1,1,1
1716181173.231556,1001.406482,565.102138,-0.001261,0.022805,-0.004763,0.002308,0.001929,0.003802,-0.000900,0.001928,0.003791,-0.000951,1,1,1
1716181173.431545,1001.406617,565.102307,-0.001291,0.022805,-0.004743,0.002306,0.001896,0.003488,-0.001000,0.001898,0.003474,-0.001044,1,1,1
1716181173.631537,1001.406529,565.101906,-0.001247,0.022824,-0.004757,0.002286,0.002025,0.002902,-0.000500,0.002020,0.002900,-0.000529,1,1,1
1716181173.831519,1001.406497,565.101511,-0.001208,0.022863,-0.004752,0.002274,0.002208,0.002533,0.000100,0.002194,0.002545,0.000083,1,1,1
1716181174.031520,1001.406515,565.101264,-0.001184,0.022881,-0.004754,0.002265,0.002001,0.002078,-0.000300,0.001997,0.002080,-0.000311,1,1,1
1716181174.231534,1001.406904,565.101661,-0.001188,0.022875,-0.004756,0.002253,0.001751,0.001818,0.000000,0.001742,0.001826,-0.000010,1,1,1
